[{"areacode":"370100","children":[{"areacode":"370102","city":"济南市","county":"历下区","lat":36.659344,"lon":117.10513,"name":"历下区","stationcode":"d6001","stationname":"泉城广场"},{"areacode":"370103","city":"济南市","county":"","lat":36.583202,"lon":116.98733,"name":"市中区","stationcode":"","stationname":""},{"areacode":"370104","city":"济南市","county":"槐荫区","lat":36.656704,"lon":116.89487,"name":"槐荫区","stationcode":"d6502","stationname":"济南森林公园"},{"areacode":"370105","city":"济南市","county":"天桥区","lat":36.77916,"lon":116.98253,"name":"天桥区","stationcode":"d6066","stationname":"无影山"},{"areacode":"370112","city":"济南市","county":"历城区","lat":36.61401,"lon":117.17342,"name":"历城区","stationcode":"d6021","stationname":"百花公园"},{"areacode":"370113","city":"济南市","county":"长清区","lat":36.411488,"lon":116.80697,"name":"长清区","stationcode":"54816","stationname":"长清"},{"areacode":"370124","city":"济南市","county":"平阴县","lat":36.180847,"lon":116.459724,"name":"平阴县","stationcode":"54818","stationname":"平阴"},{"areacode":"370125","city":"济南市","county":"济阳区","lat":37.062645,"lon":117.144585,"name":"济阳区","stationcode":"54821","stationname":"济阳"},{"areacode":"370126","city":"济南市","county":"商河县","lat":37.330055,"lon":117.2033,"name":"商河县","stationcode":"54724","stationname":"商河"},{"areacode":"370181","city":"济南市","county":"章丘区","lat":36.742786,"lon":117.457535,"name":"章丘区","stationcode":"54727","stationname":"章丘"}],"city":"济南市","county":"市中区","lat":36.6,"lon":117.0,"name":"济南市","stationcode":"54823","stationname":"济南"},{"areacode":"370200","children":[{"areacode":"370202","city":"青岛市","county":"","lat":36.060444,"lon":120.34596,"name":"市南区","stationcode":"","stationname":""},{"areacode":"370203","city":"青岛市","county":"","lat":36.101685,"lon":120.343216,"name":"市北区","stationcode":"","stationname":""},{"areacode":"370211","city":"青岛市","county":"黄岛区","lat":35.852776,"lon":119.87799,"name":"黄岛区","stationcode":"54943","stationname":"黄岛"},{"areacode":"370212","city":"青岛市","county":"崂山区","lat":36.16071,"lon":120.62893,"name":"崂山区","stationcode":"54853","stationname":"崂山"},{"areacode":"370213","city":"青岛市","county":"李沧区","lat":36.196354,"lon":120.4088,"name":"李沧区","stationcode":"d0181","stationname":"世园园区"},{"areacode":"370214","city":"青岛市","county":"城阳区","lat":36.27484,"lon":120.321144,"name":"城阳区","stationcode":"d0162","stationname":"河套镇"},{"areacode":"370281","city":"青岛市","county":"胶州市","lat":36.21286,"lon":119.91077,"name":"胶州市","stationcode":"54849","stationname":"胶州"},{"areacode":"370282","city":"青岛市","county":"即墨市","lat":36.45921,"lon":120.62403,"name":"即墨市","stationcode":"54855","stationname":"即墨"},{"areacode":"370283","city":"青岛市","county":"平度市","lat":36.811485,"lon":119.96483,"name":"平度市","stationcode":"54842","stationname":"平度"},{"areacode":"370285","city":"青岛市","county":"莱西市","lat":36.881042,"lon":120.451225,"name":"莱西市","stationcode":"54851","stationname":"莱西"}],"city":"青岛市","county":"市南区","lat":36.07,"lon":120.33,"name":"青岛市","stationcode":"54857","stationname":"青岛"},{"areacode":"370300","children":[{"areacode":"370302","city":"淄博市","county":"淄川区","lat":36.590202,"lon":117.98105,"name":"淄川区","stationcode":"54824","stationname":"淄川"},{"areacode":"370303","city":"淄博市","county":"张店区","lat":36.81348,"lon":118.06551,"name":"张店区","stationcode":"d4003","stationname":"沣水镇"},{"areacode":"370304","city":"淄博市","county":"博山区","lat":36.422905,"lon":117.92768,"name":"博山区","stationcode":"54825","stationname":"博山"},{"areacode":"370305","city":"淄博市","county":"临淄区","lat":36.827183,"lon":118.26267,"name":"临淄区","stationcode":"54834","stationname":"临淄"},{"areacode":"370306","city":"淄博市","county":"周村区","lat":36.7471,"lon":117.84564,"name":"周村区","stationcode":"54829","stationname":"周村"},{"areacode":"370321","city":"淄博市","county":"桓台县","lat":36.966785,"lon":118.026825,"name":"桓台县","stationcode":"54833","stationname":"桓台"},{"areacode":"370322","city":"淄博市","county":"高青县","lat":37.180702,"lon":117.8823,"name":"高青县","stationcode":"54729","stationname":"高青"},{"areacode":"370323","city":"淄博市","county":"沂源县","lat":36.106,"lon":118.20554,"name":"沂源县","stationcode":"54836","stationname":"沂源"}],"city":"淄博市","county":"周村区","lat":36.82,"lon":117.93,"name":"淄博市","stationcode":"54830","stationname":"淄博"},{"areacode":"370400","children":[{"areacode":"370103","city":"枣庄市","county":"","lat":34.864452,"lon":117.58767,"name":"市中区","stationcode":"","stationname":""},{"areacode":"370403","city":"枣庄市","county":"薛城区","lat":34.781246,"lon":117.35372,"name":"薛城区","stationcode":"58021","stationname":"薛城"},{"areacode":"370404","city":"枣庄市","county":"峄城区","lat":34.727722,"lon":117.62656,"name":"峄城区","stationcode":"58022","stationname":"峄城"},{"areacode":"370405","city":"枣庄市","county":"台儿庄区","lat":34.58778,"lon":117.605804,"name":"台儿庄区","stationcode":"58025","stationname":"台儿庄"},{"areacode":"370406","city":"枣庄市","county":"山亭区","lat":35.090996,"lon":117.469635,"name":"山亭区","stationcode":"d8184","stationname":"东凫山站"},{"areacode":"370481","city":"枣庄市","county":"滕州市","lat":35.059566,"lon":117.150925,"name":"滕州市","stationcode":"54927","stationname":"滕州"}],"city":"枣庄市","county":"市中区","lat":34.87,"lon":117.58,"name":"枣庄市","stationcode":"58024","stationname":"枣庄"},{"areacode":"370500","children":[{"areacode":"370502","city":"东营市","county":"东营区","lat":37.39662,"lon":118.51649,"name":"东营区","stationcode":"54736","stationname":"东营"},{"areacode":"370503","city":"东营市","county":"河口区","lat":37.993942,"lon":118.5686,"name":"河口区","stationcode":"54732","stationname":"河口"},{"areacode":"370505","city":"东营市","county":"垦利县","lat":37.623108,"lon":118.80458,"name":"垦利区","stationcode":"54744","stationname":"垦利"},{"areacode":"370522","city":"东营市","county":"利津县","lat":37.616573,"lon":118.28808,"name":"利津县","stationcode":"54731","stationname":"利津"},{"areacode":"370523","city":"东营市","county":"广饶县","lat":37.127094,"lon":118.52061,"name":"广饶县","stationcode":"54738","stationname":"广饶"}],"city":"东营市","county":"东营区","lat":37.43,"lon":118.67,"name":"东营市","stationcode":"54736","stationname":"东营"},{"areacode":"370600","children":[{"areacode":"370602","city":"烟台市","county":"芝罘区","lat":37.55228,"lon":121.34023,"name":"芝罘区","stationcode":"d1007","stationname":"葡萄山"},{"areacode":"370611","city":"烟台市","county":"福山区","lat":37.482964,"lon":121.16702,"name":"福山区","stationcode":"54764","stationname":"福山"},{"areacode":"370612","city":"烟台市","county":"牟平区","lat":37.23241,"lon":121.559944,"name":"牟平区","stationcode":"54766","stationname":"牟平"},{"areacode":"370613","city":"烟台市","county":"莱山区","lat":37.391804,"lon":121.42621,"name":"莱山区","stationcode":"d1014","stationname":"东海"},{"areacode":"370681","city":"烟台市","county":"龙口市","lat":37.609177,"lon":120.49923,"name":"龙口市","stationcode":"54753","stationname":"龙口"},{"areacode":"370682","city":"烟台市","county":"莱阳市","lat":36.900486,"lon":120.722084,"name":"莱阳市","stationcode":"54852","stationname":"莱阳"},{"areacode":"370683","city":"烟台市","county":"莱州市","lat":37.184464,"lon":120.00267,"name":"莱州市","stationcode":"54749","stationname":"莱州"},{"areacode":"370684","city":"烟台市","county":"蓬莱市","lat":37.636692,"lon":120.82996,"name":"蓬莱市","stationcode":"54752","stationname":"蓬莱"},{"areacode":"370685","city":"烟台市","county":"招远市","lat":37.298805,"lon":120.378494,"name":"招远市","stationcode":"54755","stationname":"招远"},{"areacode":"370686","city":"烟台市","county":"栖霞市","lat":37.323074,"lon":120.88283,"name":"栖霞市","stationcode":"54759","stationname":"栖霞"},{"areacode":"370687","city":"烟台市","county":"海阳市","lat":36.879524,"lon":121.11729,"name":"海阳市","stationcode":"54863","stationname":"海阳"}],"city":"烟台市","county":"莱山区","lat":37.48,"lon":121.43,"name":"烟台市","stationcode":"54765","stationname":"烟台"},{"areacode":"370700","children":[{"areacode":"370702","city":"潍坊市","county":"潍城区","lat":36.717808,"lon":118.99232,"name":"潍城区","stationcode":"d2001","stationname":"市局站"},{"areacode":"370703","city":"潍坊市","county":"寒亭区","lat":36.92541,"lon":119.13507,"name":"寒亭区","stationcode":"d2031","stationname":"央子"},{"areacode":"370704","city":"潍坊市","county":"坊子区","lat":36.508575,"lon":119.35944,"name":"坊子区","stationcode":"d2021","stationname":"王家庄"},{"areacode":"370705","city":"潍坊市","county":"奎文区","lat":36.682217,"lon":119.18213,"name":"奎文区","stationcode":"d2140","stationname":"高速东"},{"areacode":"370724","city":"潍坊市","county":"临朐县","lat":36.341324,"lon":118.59308,"name":"临朐县","stationcode":"54835","stationname":"临朐"},{"areacode":"370725","city":"潍坊市","county":"昌乐县","lat":36.52344,"lon":118.890205,"name":"昌乐县","stationcode":"54837","stationname":"昌乐"},{"areacode":"370781","city":"潍坊市","county":"青州市","lat":36.692223,"lon":118.482605,"name":"青州市","stationcode":"54831","stationname":"青州"},{"areacode":"370782","city":"潍坊市","county":"诸城市","lat":35.966816,"lon":119.41842,"name":"诸城市","stationcode":"54848","stationname":"诸城"},{"areacode":"370783","city":"潍坊市","county":"寿光市","lat":36.964806,"lon":118.83671,"name":"寿光市","stationcode":"54832","stationname":"寿光"},{"areacode":"370784","city":"潍坊市","county":"安丘市","lat":36.324486,"lon":119.11687,"name":"安丘市","stationcode":"54844","stationname":"安丘"},{"areacode":"370785","city":"潍坊市","county":"高密市","lat":36.367893,"lon":119.67077,"name":"高密市","stationcode":"54846","stationname":"高密"},{"areacode":"370786","city":"潍坊市","county":"昌邑市","lat":36.753902,"lon":119.4704,"name":"昌邑市","stationcode":"54841","stationname":"昌邑"}],"city":"潍坊市","county":"寒亭区","lat":36.75,"lon":119.2,"name":"潍坊市","stationcode":"54843","stationname":"潍坊"},{"areacode":"370800","children":[{"areacode":"370811","city":"济宁市","county":"任城区","lat":35.372578,"lon":116.55002,"name":"任城区","stationcode":"54915","stationname":"济宁"},{"areacode":"370812","city":"济宁市","county":"曲阜市","lat":35.585537,"lon":116.74236,"name":"兖州区","stationcode":"54916","stationname":"兖州"},{"areacode":"370826","city":"济宁市","county":"微山县","lat":34.870953,"lon":117.043564,"name":"微山县","stationcode":"58020","stationname":"微山"},{"areacode":"370827","city":"济宁市","county":"鱼台县","lat":35.000614,"lon":116.53157,"name":"鱼台县","stationcode":"54907","stationname":"鱼台"},{"areacode":"370828","city":"济宁市","county":"金乡县","lat":35.053493,"lon":116.30451,"name":"金乡县","stationcode":"54917","stationname":"金乡"},{"areacode":"370829","city":"济宁市","county":"嘉祥县","lat":35.395718,"lon":116.28572,"name":"嘉祥县","stationcode":"54921","stationname":"嘉祥"},{"areacode":"370830","city":"济宁市","county":"汶上县","lat":35.716427,"lon":116.4871,"name":"汶上县","stationcode":"54912","stationname":"汶上"},{"areacode":"370831","city":"济宁市","county":"泗水县","lat":35.632793,"lon":117.34006,"name":"泗水县","stationcode":"54920","stationname":"泗水"},{"areacode":"370832","city":"济宁市","county":"梁山县","lat":35.78681,"lon":116.1216,"name":"梁山县","stationcode":"54910","stationname":"梁山"},{"areacode":"370881","city":"济宁市","county":"曲阜市","lat":35.613754,"lon":117.04927,"name":"曲阜市","stationcode":"54918","stationname":"曲阜"},{"areacode":"370883","city":"济宁市","county":"邹城市","lat":35.353054,"lon":117.11779,"name":"邹城市","stationcode":"54919","stationname":"邹城"}],"city":"济宁市","county":"任城区","lat":35.43,"lon":116.6,"name":"济宁市","stationcode":"54915","stationname":"济宁"},{"areacode":"370900","children":[{"areacode":"370902","city":"泰安市","county":"泰山区","lat":36.203205,"lon":117.15281,"name":"泰山区","stationcode":"54826","stationname":"泰山"},{"areacode":"370911","city":"泰安市","county":"岱岳区","lat":36.0429,"lon":117.205956,"name":"岱岳区","stationcode":"d4001","stationname":"高新区"},{"areacode":"370921","city":"泰安市","county":"宁阳县","lat":35.791893,"lon":116.90459,"name":"宁阳县","stationcode":"54913","stationname":"宁阳"},{"areacode":"370923","city":"泰安市","county":"东平县","lat":35.955215,"lon":116.33771,"name":"东平县","stationcode":"54911","stationname":"东平"},{"areacode":"370982","city":"泰安市","county":"新泰市","lat":35.860508,"lon":117.60969,"name":"新泰市","stationcode":"54922","stationname":"新泰"},{"areacode":"370983","city":"泰安市","county":"肥城市","lat":36.12478,"lon":116.7145,"name":"肥城市","stationcode":"54819","stationname":"肥城"}],"city":"泰安市","county":"泰山区","lat":36.17,"lon":117.15,"name":"泰安市","stationcode":"54827","stationname":"泰安"},{"areacode":"371000","children":[{"areacode":"371002","city":"威海市","county":"环翠区","lat":37.389755,"lon":122.10731,"name":"环翠区","stationcode":"54774","stationname":"威海"},{"areacode":"371003","city":"威海市","county":"文登区","lat":37.160587,"lon":121.98786,"name":"文登区","stationcode":"54777","stationname":"文登"},{"areacode":"371082","city":"威海市","county":"荣成市","lat":37.157455,"lon":122.41451,"name":"荣成市","stationcode":"54778","stationname":"荣成"},{"areacode":"371083","city":"威海市","county":"乳山市","lat":36.942074,"lon":121.509445,"name":"乳山市","stationcode":"54861","stationname":"乳山"}],"city":"威海市","county":"环翠区","lat":37.47,"lon":122.13,"name":"威海市","stationcode":"54774","stationname":"威海"},{"areacode":"371100","children":[{"areacode":"371102","city":"日照市","county":"东港区","lat":35.45664,"lon":119.31684,"name":"东港区","stationcode":"54945","stationname":"日照"},{"areacode":"371103","city":"日照市","county":"岚山区","lat":35.27682,"lon":119.224815,"name":"岚山区","stationcode":"d2046","stationname":"黄墩"},{"areacode":"371121","city":"日照市","county":"五莲县","lat":35.75258,"lon":119.20234,"name":"五莲县","stationcode":"54940","stationname":"五莲"},{"areacode":"371122","city":"日照市","county":"莒县","lat":35.662163,"lon":118.88137,"name":"莒县","stationcode":"54936","stationname":"莒县"}],"city":"日照市","county":"东港区","lat":35.47,"lon":119.55,"name":"日照市","stationcode":"54945","stationname":"日照"},{"areacode":"371200","children":[{"areacode":"371202","city":"莱芜市","county":"莱城区","lat":36.31287,"lon":117.64478,"name":"莱城区","stationcode":"54828","stationname":"莱芜"},{"areacode":"371203","city":"莱芜市","county":"钢城区","lat":36.123943,"lon":117.843605,"name":"钢城区","stationcode":"d4115","stationname":"钢城"}],"city":"莱芜市","county":"莱城区","lat":36.23,"lon":117.68,"name":"莱芜市","stationcode":"54828","stationname":"莱芜"},{"areacode":"371300","children":[{"areacode":"371302","city":"临沂市","county":"兰山区","lat":35.209953,"lon":118.224915,"name":"兰山区","stationcode":"54938","stationname":"临沂"},{"areacode":"371311","city":"临沂市","county":"罗庄区","lat":34.948742,"lon":118.27784,"name":"罗庄区","stationcode":"d5090","stationname":"黄山"},{"areacode":"371312","city":"临沂市","county":"河东区","lat":35.207794,"lon":118.53136,"name":"河东区","stationcode":"d5116","stationname":"河东重沟"},{"areacode":"371321","city":"临沂市","county":"沂南县","lat":35.55094,"lon":118.41088,"name":"沂南县","stationcode":"54935","stationname":"沂南"},{"areacode":"371322","city":"临沂市","county":"郯城县","lat":34.63772,"lon":118.33202,"name":"郯城县","stationcode":"58034","stationname":"郯城"},{"areacode":"371323","city":"临沂市","county":"沂水县","lat":35.903507,"lon":118.62055,"name":"沂水县","stationcode":"54932","stationname":"沂水"},{"areacode":"371324","city":"临沂市","county":"兰陵县","lat":34.860718,"lon":117.99785,"name":"兰陵县","stationcode":"d5031","stationname":"兰陵"},{"areacode":"371325","city":"临沂市","county":"费县","lat":35.22876,"lon":117.920944,"name":"费县","stationcode":"54929","stationname":"费县"},{"areacode":"371326","city":"临沂市","county":"平邑县","lat":35.404087,"lon":117.64603,"name":"平邑县","stationcode":"54925","stationname":"平邑"},{"areacode":"371327","city":"临沂市","county":"莒南县","lat":35.207737,"lon":118.8636,"name":"莒南县","stationcode":"54939","stationname":"莒南"},{"areacode":"371328","city":"临沂市","county":"蒙阴县","lat":35.74663,"lon":118.048836,"name":"蒙阴县","stationcode":"54923","stationname":"蒙阴"},{"areacode":"371329","city":"临沂市","county":"临沭县","lat":34.875755,"lon":118.69227,"name":"临沭县","stationcode":"58032","stationname":"临沭"}],"city":"临沂市","county":"兰山区","lat":35.25,"lon":118.42,"name":"临沂市","stationcode":"54938","stationname":"临沂"},{"areacode":"371400","children":[{"areacode":"371402","city":"德州市","county":"德城区","lat":37.447365,"lon":116.38668,"name":"德城区","stationcode":"54714","stationname":"德州"},{"areacode":"371403","city":"德州市","county":"陵城区","lat":37.41623,"lon":116.69772,"name":"陵城区","stationcode":"54715","stationname":"陵县"},{"areacode":"371422","city":"德州市","county":"宁津县","lat":37.661476,"lon":116.79098,"name":"宁津县","stationcode":"54716","stationname":"宁津"},{"areacode":"371423","city":"德州市","county":"庆云县","lat":37.801636,"lon":117.4522,"name":"庆云县","stationcode":"54728","stationname":"庆云"},{"areacode":"371424","city":"德州市","county":"临邑县","lat":37.28644,"lon":116.907394,"name":"临邑县","stationcode":"54712","stationname":"临邑"},{"areacode":"371425","city":"德州市","county":"齐河县","lat":36.750393,"lon":116.652855,"name":"齐河县","stationcode":"54812","stationname":"齐河"},{"areacode":"371426","city":"德州市","county":"平原县","lat":37.148468,"lon":116.42609,"name":"平原县","stationcode":"54718","stationname":"平原"},{"areacode":"371427","city":"德州市","county":"夏津县","lat":37.014374,"lon":116.02716,"name":"夏津县","stationcode":"54803","stationname":"夏津"},{"areacode":"371428","city":"德州市","county":"武城县","lat":37.198296,"lon":116.06035,"name":"武城县","stationcode":"54709","stationname":"武城"},{"areacode":"371481","city":"德州市","county":"乐陵市","lat":37.62783,"lon":117.124016,"name":"乐陵市","stationcode":"54726","stationname":"乐陵"},{"areacode":"371482","city":"德州市","county":"禹城市","lat":36.92166,"lon":116.56626,"name":"禹城市","stationcode":"54811","stationname":"禹城"}],"city":"德州市","county":"德城区","lat":37.45,"lon":116.33,"name":"德州市","stationcode":"54714","stationname":"德州"},{"areacode":"371500","children":[{"areacode":"371502","city":"聊城市","county":"东昌府区","lat":36.461403,"lon":115.95183,"name":"东昌府区","stationcode":"54806","stationname":"聊城"},{"areacode":"371521","city":"聊城市","county":"阳谷县","lat":36.16607,"lon":115.84261,"name":"阳谷县","stationcode":"54807","stationname":"阳谷"},{"areacode":"371522","city":"聊城市","county":"莘县","lat":36.166504,"lon":115.51715,"name":"莘县","stationcode":"54808","stationname":"莘县"},{"areacode":"371523","city":"聊城市","county":"茌平县","lat":36.602715,"lon":116.16141,"name":"茌平县","stationcode":"54814","stationname":"茌平"},{"areacode":"371524","city":"聊城市","county":"东阿县","lat":36.341557,"lon":116.23903,"name":"东阿县","stationcode":"54815","stationname":"东阿"},{"areacode":"371525","city":"聊城市","county":"冠县","lat":36.52935,"lon":115.54556,"name":"冠县","stationcode":"54805","stationname":"冠县"},{"areacode":"371526","city":"聊城市","county":"高唐县","lat":36.83243,"lon":116.25527,"name":"高唐县","stationcode":"54810","stationname":"高唐"},{"areacode":"371581","city":"聊城市","county":"临清市","lat":36.77089,"lon":115.77643,"name":"临清市","stationcode":"54802","stationname":"临清"}],"city":"聊城市","county":"东昌府区","lat":36.42,"lon":115.97,"name":"聊城市","stationcode":"54806","stationname":"聊城"},{"areacode":"371600","children":[{"areacode":"371602","city":"滨州市","county":"滨城区","lat":37.436817,"lon":117.97863,"name":"滨城区","stationcode":"54734","stationname":"滨州"},{"areacode":"371603","city":"滨州市","county":"沾化区","lat":37.744232,"lon":118.024826,"name":"沾化区","stationcode":"54730","stationname":"沾化"},{"areacode":"371621","city":"滨州市","county":"惠民县","lat":37.431797,"lon":117.53324,"name":"惠民县","stationcode":"54725","stationname":"惠民"},{"areacode":"371622","city":"滨州市","county":"阳信县","lat":37.615685,"lon":117.57616,"name":"阳信县","stationcode":"54723","stationname":"阳信"},{"areacode":"371623","city":"滨州市","county":"无棣县","lat":37.874805,"lon":117.729866,"name":"无棣县","stationcode":"54722","stationname":"无棣"},{"areacode":"371625","city":"滨州市","county":"博兴县","lat":37.169666,"lon":118.199486,"name":"博兴县","stationcode":"54737","stationname":"博兴"},{"areacode":"371626","city":"滨州市","county":"邹平县","lat":36.904877,"lon":117.67476,"name":"邹平县","stationcode":"54822","stationname":"邹平"}],"city":"滨州市","county":"滨城区","lat":37.35,"lon":118.0,"name":"滨州市","stationcode":"54734","stationname":"滨州"},{"areacode":"371700","children":[{"areacode":"371702","city":"菏泽市","county":"牡丹区","lat":35.278328,"lon":115.462944,"name":"牡丹区","stationcode":"d8014","stationname":"牡丹"},{"areacode":"371721","city":"菏泽市","county":"曹县","lat":34.867687,"lon":115.511,"name":"曹县","stationcode":"58002","stationname":"曹县"},{"areacode":"371722","city":"菏泽市","county":"单县","lat":34.756092,"lon":116.13625,"name":"单县","stationcode":"58011","stationname":"单县"},{"areacode":"371723","city":"菏泽市","county":"成武县","lat":34.984848,"lon":115.93851,"name":"成武县","stationcode":"58003","stationname":"成武"},{"areacode":"371724","city":"菏泽市","county":"巨野县","lat":35.291096,"lon":116.0344,"name":"巨野县","stationcode":"54914","stationname":"巨野"},{"areacode":"371725","city":"菏泽市","county":"郓城县","lat":35.585938,"lon":115.89046,"name":"郓城县","stationcode":"54905","stationname":"郓城"},{"areacode":"371726","city":"菏泽市","county":"鄄城县","lat":35.52849,"lon":115.5524,"name":"鄄城县","stationcode":"54904","stationname":"鄄城"},{"areacode":"371727","city":"菏泽市","county":"定陶县","lat":35.086403,"lon":115.59558,"name":"定陶县","stationcode":"54909","stationname":"定陶"},{"areacode":"371728","city":"菏泽市","county":"东明县","lat":35.151405,"lon":115.10577,"name":"东明县","stationcode":"54908","stationname":"东明"}],"city":"菏泽市","county":"牡丹区","lat":35.25,"lon":115.42,"name":"菏泽市","stationcode":"54906","stationname":"菏泽"}]